{
  "title": "北疆大环线",
  "subtitle": "天山·喀纳斯·赛里木湖·伊犁河谷·独库公路·吐鲁番",
  "cities": [
    {
      "index": 0,
      "name": "乌鲁木齐",
      "lat": 43.825,
      "lon": 87.617,
      "attractions_primary": [
        {"name": "新疆国际大巴扎", "lat": 43.784, "lon": 87.616},
        {"name": "新疆博物馆", "lat": 43.842, "lon": 87.587}
      ],
      "attractions_secondary": [
        {"name": "天山天池", "lat": 43.884, "lon": 88.131}
      ],
      "color": "#C0392B"
    },
    {
      "index": 1,
      "name": "富蕴",
      "lat": 47.003,
      "lon": 89.527,
      "attractions_primary": [
        {"name": "可可托海", "lat": 47.218, "lon": 89.819},
        {"name": "神钟山", "lat": 47.211, "lon": 89.826}
      ],
      "attractions_secondary": [
        {"name": "额尔齐斯大峡谷", "lat": 47.210, "lon": 89.830}
      ],
      "color": "#E67E22"
    },
    {
      "index": 2,
      "name": "布尔津",
      "lat": 47.701,
      "lon": 86.861,
      "attractions_primary": [
        {"name": "五彩滩", "lat": 47.650, "lon": 86.810}
      ],
      "attractions_secondary": [],
      "color": "#F39C12"
    },
    {
      "index": 3,
      "name": "喀纳斯",
      "lat": 48.674,
      "lon": 87.036,
      "attractions_primary": [
        {"name": "喀纳斯湖", "lat": 48.683, "lon": 87.033},
        {"name": "观鱼台", "lat": 48.670, "lon": 87.020}
      ],
      "attractions_secondary": [
        {"name": "神仙湾", "lat": 48.640, "lon": 87.065}
      ],
      "color": "#27AE60"
    },
    {
      "index": 4,
      "name": "禾木",
      "lat": 48.567,
      "lon": 87.146,
      "attractions_primary": [
        {"name": "禾木村", "lat": 48.567, "lon": 87.146},
        {"name": "观景台", "lat": 48.570, "lon": 87.140}
      ],
      "attractions_secondary": [],
      "color": "#1ABC9C"
    },
    {
      "index": 5,
      "name": "乌尔禾",
      "lat": 45.933,
      "lon": 84.686,
      "attractions_primary": [
        {"name": "世界魔鬼城", "lat": 45.988, "lon": 84.733}
      ],
      "attractions_secondary": [],
      "color": "#2980B9"
    },
    {
      "index": 6,
      "name": "赛里木湖",
      "lat": 44.583,
      "lon": 81.167,
      "attractions_primary": [
        {"name": "赛里木湖", "lat": 44.583, "lon": 81.167}
      ],
      "attractions_secondary": [
        {"name": "果子沟大桥", "lat": 44.433, "lon": 81.150}
      ],
      "color": "#8E44AD"
    },
    {
      "index": 7,
      "name": "伊宁",
      "lat": 43.917,
      "lon": 81.325,
      "attractions_primary": [
        {"name": "喀赞其", "lat": 43.910, "lon": 81.314},
        {"name": "六星街", "lat": 43.923, "lon": 81.293}
      ],
      "attractions_secondary": [
        {"name": "伊犁州博物馆", "lat": 43.915, "lon": 81.321}
      ],
      "color": "#D35400"
    },
    {
      "index": 8,
      "name": "那拉提",
      "lat": 43.417,
      "lon": 83.750,
      "attractions_primary": [
        {"name": "空中草原", "lat": 43.417, "lon": 83.750},
        {"name": "河谷草原", "lat": 43.385, "lon": 83.800}
      ],
      "attractions_secondary": [],
      "color": "#1ABC9C"
    },
    {
      "index": 9,
      "name": "巴音布鲁克",
      "lat": 43.033,
      "lon": 84.150,
      "attractions_primary": [
        {"name": "九曲十八弯", "lat": 42.970, "lon": 84.100}
      ],
      "attractions_secondary": [
        {"name": "天鹅湖", "lat": 42.980, "lon": 84.120}
      ],
      "color": "#9B59B6"
    },
    {
      "index": 10,
      "name": "独山子",
      "lat": 44.333,
      "lon": 84.867,
      "attractions_primary": [
        {"name": "独山子大峡谷", "lat": 44.158, "lon": 84.858}
      ],
      "attractions_secondary": [
        {"name": "独库公路", "lat": 44.333, "lon": 84.867}
      ],
      "color": "#E91E63"
    },
    {
      "index": 11,
      "name": "吐鲁番",
      "lat": 42.950,
      "lon": 89.183,
      "attractions_primary": [
        {"name": "交河故城", "lat": 42.950, "lon": 89.062},
        {"name": "高昌故城", "lat": 42.853, "lon": 89.533}
      ],
      "attractions_secondary": [
        {"name": "坎儿井", "lat": 42.946, "lon": 89.191},
        {"name": "火焰山", "lat": 42.900, "lon": 89.534},
        {"name": "葡萄沟", "lat": 42.933, "lon": 89.228}
      ],
      "color": "#FF9800"
    }
  ],
  "segments": [
    {"from_index": 0, "to_index": 1, "day": 2, "distance": "472km", "time": "5.5小时"},
    {"from_index": 1, "to_index": 2, "day": 3, "distance": "282km", "time": "4小时"},
    {"from_index": 2, "to_index": 3, "day": 4, "distance": "149km", "time": "3小时"},
    {"from_index": 3, "to_index": 4, "day": 5, "distance": "18km", "time": "1小时"},
    {"from_index": 4, "to_index": 5, "day": 6, "distance": "475km", "time": "6小时"},
    {"from_index": 5, "to_index": 6, "day": 7, "distance": "525km", "time": "6小时"},
    {"from_index": 6, "to_index": 7, "day": 8, "distance": "124km", "time": "2小时"},
    {"from_index": 7, "to_index": 8, "day": 10, "distance": "218km", "time": "2.5小时"},
    {"from_index": 8, "to_index": 9, "day": 11, "distance": "107km", "time": "2小时"},
    {"from_index": 9, "to_index": 10, "day": 12, "distance": "271km", "time": "5小时"},
    {"from_index": 10, "to_index": 0, "day": 13, "distance": "248km", "time": "3小时"},
    {"from_index": 0, "to_index": 11, "day": 14, "distance": "193km", "time": "2.5小时"},
    {"from_index": 11, "to_index": 0, "day": 15, "distance": "191km", "time": "2.5小时"}
  ],
  "rest_days": {
    "1": "乌鲁木齐",
    "9": "伊宁"
  },
  "day_colors": {
    "1": "#E74C3C",
    "2": "#E67E22",
    "3": "#F39C12",
    "4": "#27AE60",
    "5": "#1ABC9C",
    "6": "#2980B9",
    "7": "#8E44AD",
    "8": "#D35400",
    "9": "#1ABC9C",
    "10": "#9B59B6",
    "11": "#E91E63",
    "12": "#FF9800",
    "13": "#607D8B",
    "14": "#795548",
    "15": "#CDDC39"
  },
  "day_attractions": {
    "1": {
      "primary": ["新疆国际大巴扎", "新疆博物馆"],
      "secondary": []
    },
    "9": {
      "primary": ["喀赞其", "六星街"],
      "secondary": ["伊犁州博物馆"]
    }
  },
  "output": {
    "width_inch": 19,
    "height_inch": 18,
    "dpi": 150,
    "desktop_copy": true
  }
}
