{
  "title": "南疆丝路自驾之旅",
  "subtitle": "帕米尔·莎车·和田·沙漠公路·龟兹·喀什",
  "cities": [
    {
      "index": 0,
      "name": "喀什",
      "lat": 39.47,
      "lon": 75.994,
      "attractions_primary": [
        {
          "name": "喀什古城",
          "lat": 39.47,
          "lon": 75.998
        },
        {
          "name": "艾提尕尔清真寺",
          "lat": 39.478,
          "lon": 75.983
        }
      ],
      "attractions_secondary": [
        {
          "name": "香妃墓",
          "lat": 39.497,
          "lon": 75.994
        },
        {
          "name": "高台民居",
          "lat": 39.467,
          "lon": 75.996
        }
      ],
      "color": "#C0392B"
    },
    {
      "index": 1,
      "name": "塔县",
      "lat": 37.775,
      "lon": 75.229,
      "attractions_primary": [
        {
          "name": "石头城",
          "lat": 37.776,
          "lon": 75.224
        },
        {
          "name": "盘龙古道",
          "lat": 37.556,
          "lon": 75.411
        }
      ],
      "attractions_secondary": [
        {
          "name": "金草滩",
          "lat": 37.778,
          "lon": 75.226
        }
      ],
      "color": "#2ECC71"
    },
    {
      "index": 2,
      "name": "莎车",
      "lat": 38.415,
      "lon": 77.249,
      "attractions_primary": [
        {
          "name": "叶尔羌汗王宫",
          "lat": 38.419,
          "lon": 77.246
        }
      ],
      "attractions_secondary": [
        {
          "name": "莎车老城",
          "lat": 38.417,
          "lon": 77.244
        }
      ],
      "color": "#2980B9"
    },
    {
      "index": 3,
      "name": "和田",
      "lat": 37.116,
      "lon": 79.922,
      "attractions_primary": [
        {
          "name": "约特干遗址",
          "lat": 37.154,
          "lon": 79.943
        },
        {
          "name": "和田博物馆",
          "lat": 37.112,
          "lon": 79.919
        }
      ],
      "attractions_secondary": [
        {
          "name": "和田夜市",
          "lat": 37.11,
          "lon": 79.925
        }
      ],
      "color": "#F39C12"
    },
    {
      "index": 4,
      "name": "民丰",
      "lat": 37.064,
      "lon": 82.695,
      "attractions_primary": [
        {
          "name": "尼雅遗址",
          "lat": 37.848,
          "lon": 82.72
        }
      ],
      "attractions_secondary": [
        {
          "name": "沙漠公路起点",
          "lat": 37.06,
          "lon": 82.69
        }
      ],
      "color": "#D35400"
    },
    {
      "index": 5,
      "name": "轮台",
      "lat": 41.782,
      "lon": 84.248,
      "attractions_primary": [
        {
          "name": "塔里木胡杨林",
          "lat": 41.567,
          "lon": 84.118
        }
      ],
      "attractions_secondary": [],
      "color": "#8E44AD"
    },
    {
      "index": 6,
      "name": "库车",
      "lat": 41.717,
      "lon": 82.962,
      "attractions_primary": [
        {
          "name": "克孜尔千佛洞",
          "lat": 41.79,
          "lon": 82.511
        },
        {
          "name": "库车王府",
          "lat": 41.714,
          "lon": 82.967
        }
      ],
      "attractions_secondary": [
        {
          "name": "苏巴什佛寺",
          "lat": 41.873,
          "lon": 82.973
        },
        {
          "name": "库车大寺",
          "lat": 41.713,
          "lon": 82.965
        }
      ],
      "color": "#1ABC9C"
    },
    {
      "index": 7,
      "name": "阿克苏",
      "lat": 41.171,
      "lon": 80.266,
      "attractions_primary": [
        {
          "name": "温宿大峡谷",
          "lat": 41.64,
          "lon": 80.378
        }
      ],
      "attractions_secondary": [
        {
          "name": "天山神木园",
          "lat": 41.199,
          "lon": 80.147
        }
      ],
      "color": "#9B59B6"
    }
  ],
  "segments": [
    {
      "from_index": 0,
      "to_index": 1,
      "day": 1,
      "distance": "294km",
      "time": "4小时"
    },
    {
      "from_index": 1,
      "to_index": 0,
      "day": 2,
      "distance": "294km",
      "time": "4小时"
    },
    {
      "from_index": 0,
      "to_index": 2,
      "day": 4,
      "distance": "195km",
      "time": "2.5小时"
    },
    {
      "from_index": 2,
      "to_index": 3,
      "day": 5,
      "distance": "329km",
      "time": "4小时"
    },
    {
      "from_index": 3,
      "to_index": 4,
      "day": 7,
      "distance": "272km",
      "time": "3.5小时"
    },
    {
      "from_index": 4,
      "to_index": 5,
      "day": 8,
      "distance": "580km",
      "time": "7小时"
    },
    {
      "from_index": 5,
      "to_index": 6,
      "day": 9,
      "distance": "113km",
      "time": "1.5小时"
    },
    {
      "from_index": 6,
      "to_index": 7,
      "day": 11,
      "distance": "252km",
      "time": "3小时"
    },
    {
      "from_index": 7,
      "to_index": 0,
      "day": 12,
      "distance": "461km",
      "time": "5小时"
    }
  ],
  "rest_days": {
    "3": "喀什",
    "6": "和田",
    "10": "库车"
  },
  "day_colors": {
    "1": "#E74C3C",
    "2": "#E67E22",
    "3": "#F1C40F",
    "4": "#2ECC71",
    "5": "#1ABC9C",
    "6": "#3498DB",
    "7": "#9B59B6",
    "8": "#E91E63",
    "9": "#FF9800",
    "10": "#009688",
    "11": "#607D8B",
    "12": "#795548"
  },
  "day_attractions": {
    "3": {
      "primary": [
        "喀什古城",
        "艾提尕尔清真寺",
        "香妃墓"
      ],
      "secondary": []
    },
    "6": {
      "primary": [
        "约特干遗址",
        "和田博物馆"
      ],
      "secondary": [
        "和田夜市"
      ]
    },
    "10": {
      "primary": [
        "克孜尔千佛洞",
        "库车王府"
      ],
      "secondary": [
        "苏巴什佛寺"
      ]
    }
  }
}